{"https://api.yelp.com/v3/businesses/search{'term': 'Thai+Food', 'location': 'Seattle', 'limit': 50}": {"businesses": [{"id": "3jYycHbe2BHzTzh8KZK_tg", "alias": "pestle-rock-seattle", "name": "Pestle Rock", "image_url": "https://s3-media3.fl.yelpcdn.com/bphoto/LBrLCvQqPmdJwTjiGQhITQ/o.jpg", "is_closed": false, "url": "https://www.yelp.com/biz/pestle-rock-seattle?adjust_creative=BPfv_JTrT9ZabA2Z5JdUdQ&utm_campaign=yelp_api_v3&utm_medium=api_v3_business_search&utm_source=BPfv_JTrT9ZabA2Z5JdUdQ", "review_count": 759, "categories": [{"alias": "thai", "title": "Thai"}, {"alias": "noodles", "title": "Noodles"}, {"alias": "soup", "title": "Soup"}], "rating": 4.5, "coordinates": {"latitude": 47.6685, "longitude": -122.38653}, "transactions": ["pickup", "delivery"], "price": "$$", "location": {"address1": "2305 NW Market St", "address2": "", "address3": "", "city": "Seattle", "zip_code": "98107", "country": "US", "state": "WA", "display_address": ["2305 NW Market St", "Seattle, WA 98107"]}, "phone": "+12064666671", "display_phone": "(206) 466-6671", "distance": 6127.199186018963}, {"id": "IXA5XIytbxJPXJZ26v0w0A", "alias": "khao-soi-bremerton-2", "name": "Khao Soi", "image_url": "https://s3-media2.fl.yelpcdn.com/bphoto/_3hWhhyyQjmvO_zMzFrcog/o.jpg", "is_closed": false, "url": "https://www.yelp.com/biz/khao-soi-bremerton-2?adjust_creative=BPfv_JTrT9ZabA2Z5JdUdQ&utm_campaign=yelp_api_v3&utm_medium=api_v3_business_search&utm_source=BPfv_JTrT9ZabA2Z5JdUdQ", "review_count": 26, "categories": [{"alias": "thai", "title": "Thai"}], "rating": 5.0, "coordinates": {"latitude": 47.570101, "longitude": -122.6164786}, "transactions": [], "price": "$$", "location": {"address1": "2003 E 11th St", "address2": null, "address3": "", "city": "Bremerton", "zip_code": "98310", "country": "US", "state": "WA", "display_address": ["2003 E 11th St", "Bremerton, WA 98310"]}, "phone": "+13603733431", "display_phone": "(360) 373-3431", "distance": 21947.189679801668}, {"id": "OiE_FU-Q65Qc5_NemKN9FA", "alias": "amazing-thai-cuisine-seattle", "name": "Amazing Thai Cuisine", "image_url": "https://s3-media2.fl.yelpcdn.com/bphoto/mZrNLz-6MnrsaWlp7Rtj_w/o.jpg", "is_closed": false, "url": "https://www.yelp.com/biz/amazing-thai-cuisine-seattle?adjust_creative=BPfv_JTrT9ZabA2Z5JdUdQ&utm_campaign=yelp_api_v3&utm_medium=api_v3_business_search&utm_source=BPfv_JTrT9ZabA2Z5JdUdQ", "review_count": 580, "categories": [{"alias": "thai", "title": "Thai"}], "rating": 4.5, "coordinates": {"latitude": 47.66679, "longitude": -122.31707}, "transactions": ["delivery"], "price": "$", "location": {"address1": "5210 Roosevelt Way NE", "address2": "Ste B", "address3": "", "city": "Seattle", "zip_code": "98105", "country": "US", "state": "WA", "display_address": ["5210 Roosevelt Way NE", "Ste B", "Seattle, WA 98105"]}, "phone": "+12065280102", "display_phone": "(206) 528-0102", "distance": 4804.947404824292}, {"id": "bBDeZ3QkljIbPPeQ__Xq-w", "alias": "noi-thai-cuisine-seattle-3", "name": "Noi Thai Cuisine", "image_url": "https://s3-media2.fl.yelpcdn.com/bphoto/Muh7UMdqeb59y0V52Vy05Q/o.jpg", "is_closed": false, "url": "https://www.yelp.com/biz/noi-thai-cuisine-seattle-3?adjust_creative=BPfv_JTrT9ZabA2Z5JdUdQ&utm_campaign=yelp_api_v3&utm_medium=api_v3_business_search&utm_source=BPfv_JTrT9ZabA2Z5JdUdQ", "review_count": 729, "categories": [{"alias": "thai", "title": "Thai"}], "rating": 4.0, "coordinates": {"latitude": 47.606881, "longitude": -122.3389654}, "transactions": ["pickup", "delivery"], "price": "$$", "location": {"address1": "1303 1st Ave", "address2": "", "address3": "Harbor Steps Building", "city": "Seattle", "zip_code": "98101", "country": "US", "state": "WA", "display_address": ["1303 1st Ave", "Harbor Steps Building", "Seattle, WA 98101"]}, "phone": "+12067878444", "display_phone": "(206) 787-8444", "distance": 2077.539993632451}, {"id": "Fnn8DbblPlC-gtiFTrUyEw", "alias": "buddha-ruksa-seattle", "name": "Buddha Ruksa", "image_url": "https://s3-media4.fl.yelpcdn.com/bphoto/E5gB5QL9clEJJ-kADkgtxw/o.jpg", "is_closed": false, "url": "https://www.yelp.com/biz/buddha-ruksa-seattle?adjust_creative=BPfv_JTrT9ZabA2Z5JdUdQ&utm_campaign=yelp_api_v3&utm_medium=api_v3_business_search&utm_source=BPfv_JTrT9ZabA2Z5JdUdQ", "review_count": 911, "categories": [{"alias": "thai", "title": "Thai"}], "rating": 4.0, "coordinates": {"latitude": 47.564769, "longitude": -122.377232}, "transactions": ["delivery"], "price": "$$", "location": {"address1": "3520 SW Genesee St", "address2": "", "address3": "", "city": "Seattle", "zip_code": "98126", "country": "US", "state": "WA", "display_address": ["3520 SW Genesee St", "Seattle, WA 98126"]}, "phone": "+12069377676", "display_phone": "(206) 937-7676", "distance": 7434.307052350936}, {"id": "Aj1oSIHJwbteXYfYquzUOA", "alias": "bangrak-market-seattle", "name": "Bangrak Market", "image_url": "https://s3-media3.fl.yelpcdn.com/bphoto/E3zqsKtW-hp3HYO0IfzKyg/o.jpg", "is_closed": false, "url": "https://www.yelp.com/biz/bangrak-market-seattle?adjust_creative=BPfv_JTrT9ZabA2Z5JdUdQ&utm_campaign=yelp_api_v3&utm_medium=api_v3_business_search&utm_source=BPfv_JTrT9ZabA2Z5JdUdQ", "review_count": 317, "categories": [{"alias": "bars", "title": "Bars"}, {"alias": "thai", "title": "Thai"}, {"alias": "tapasmallplates", "title": "Tapas/Small Plates"}], "rating": 4.0, "coordinates": {"latitude": 47.614263, "longitude": -122.346387}, "transactions": ["delivery"], "price": "$$", "location": {"address1": "2319 2nd Ave", "address2": null, "address3": "", "city": "Seattle", "zip_code": "98121", "country": "US", "state": "WA", "display_address": ["2319 2nd Ave", "Seattle, WA 98121"]}, "phone": "+12067357352", "display_phone": "(206) 735-7352", "distance": 1484.3874125669402}, {"id": "qj-J9ZtSHVsrwsXzatU7fA", "alias": "cherry-street-thai-seattle", "name": "Cherry Street Thai", "image_url": "https://s3-media1.fl.yelpcdn.com/bphoto/NbEihlD90omXaJ229Bi5bg/o.jpg", "is_closed": false, "url": "https://www.yelp.com/biz/cherry-street-thai-seattle?adjust_creative=BPfv_JTrT9ZabA2Z5JdUdQ&utm_campaign=yelp_api_v3&utm_medium=api_v3_business_search&utm_source=BPfv_JTrT9ZabA2Z5JdUdQ", "review_count": 272, "categories": [{"alias": "thai", "title": "Thai"}], "rating": 4.5, "coordinates": {"latitude": 47.6081545, "longitude": -122.2966784}, "transactions": ["delivery"], "price": "$$", "location": {"address1": "2724 E Cherry St", "address2": "", "address3": "", "city": "Seattle", "zip_code": "98122", "country": "US", "state": "WA", "display_address": ["2724 E Cherry St", "Seattle, WA 98122"]}, "phone": "+12063256660", "display_phone": "(206) 325-6660", "distance": 3486.7116413562485}, {"id": "m2Znp7ef4kKoLFp6aiEdXQ", "alias": "bahn-thai-restaurant-seattle", "name": "Bahn Thai Restaurant", "image_url": "https://s3-media2.fl.yelpcdn.com/bphoto/w2I0P3MtPOUMhOSq524AOg/o.jpg", "is_closed": false, "url": "https://www.yelp.com/biz/bahn-thai-restaurant-seattle?adjust_creative=BPfv_JTrT9ZabA2Z5JdUdQ&utm_campaign=yelp_api_v3&utm_medium=api_v3_business_search&utm_source=BPfv_JTrT9ZabA2Z5JdUdQ", "review_count": 466, "categories": [{"alias": "thai", "title": "Thai"}], "rating": 4.0, "coordinates": {"latitude": 47.62526, "longitude": -122.34836}, "transactions": ["pickup", "delivery"], "price": "$$", "location": {"address1": "409 Roy St", "address2": "", "address3": "", "city": "Seattle", "zip_code": "98109", "country": "US", "state": "WA", "display_address": ["409 Roy St", "Seattle, WA 98109"]}, "phone": "+12062830444", "display_phone": "(206) 283-0444", "distance": 966.2253708170749}, {"id": "0u0DFkAQMmwAIWca71Sg5g", "alias": "jamjuree-thai-cuisine-seattle", "name": "Jamjuree Thai Cuisine", "image_url": "https://s3-media1.fl.yelpcdn.com/bphoto/gnYmJ1AscB56G98o6nv5PQ/o.jpg", "is_closed": false, "url": "https://www.yelp.com/biz/jamjuree-thai-cuisine-seattle?adjust_creative=BPfv_JTrT9ZabA2Z5JdUdQ&utm_campaign=yelp_api_v3&utm_medium=api_v3_business_search&utm_source=BPfv_JTrT9ZabA2Z5JdUdQ", "review_count": 592, "categories": [{"alias": "thai", "title": "Thai"}], "rating": 4.0, "coordinates": {"latitude": 47.62346, "longitude": -122.31293}, "transactions": ["delivery"], "price": "$$", "location": {"address1": "509 15th Ave E", "address2": "", "address3": "", "city": "Seattle", "zip_code": "98112", "country": "US", "state": "WA", "display_address": ["509 15th Ave E", "Seattle, WA 98112"]}, "phone": "+12063234255", "display_phone": "(206) 323-4255", "distance": 1709.120202274242}, {"id": "JlHk77mTlp3xzrDHeYyyfA", "alias": "krungthep-thai-cuisine-seattle-2", "name": "Krungthep Thai Cuisine", "image_url": "https://s3-media3.fl.yelpcdn.com/bphoto/sukmFNqdA15vTAi76wA43A/o.jpg", "is_closed": false, "url": "https://www.yelp.com/biz/krungthep-thai-cuisine-seattle-2?adjust_creative=BPfv_JTrT9ZabA2Z5JdUdQ&utm_campaign=yelp_api_v3&utm_medium=api_v3_business_search&utm_source=BPfv_JTrT9ZabA2Z5JdUdQ", "review_count": 461, "categories": [{"alias": "thai", "title": "Thai"}], "rating": 4.5, "coordinates": {"latitude": 47.48319, "longitude": -122.3333321}, "transactions": ["pickup", "delivery"], "price": "$$", "location": {"address1": "13260 1st Ave S", "address2": "Ste A", "address3": "", "city": "Seattle", "zip_code": "98168", "country": "US", "state": "WA", "display_address": ["13260 1st Ave S", "Ste A", "Seattle, WA 98168"]}, "phone": "+12068299426", "display_phone": "(206) 829-9426", "distance": 15815.975666077915}, {"id": "xnp-sBsGVoYQFDnetEZ5-w", "alias": "thai-siam-seattle-2", "name": "Thai Siam", "image_url": "https://s3-media3.fl.yelpcdn.com/bphoto/NbyQrJXt9O19sSof6IQMVA/o.jpg", "is_closed": false, "url": "https://www.yelp.com/biz/thai-siam-seattle-2?adjust_creative=BPfv_JTrT9ZabA2Z5JdUdQ&utm_campaign=yelp_api_v3&utm_medium=api_v3_business_search&utm_source=BPfv_JTrT9ZabA2Z5JdUdQ", "review_count": 507, "categories": [{"alias": "thai", "title": "Thai"}], "rating": 4.0, "coordinates": {"latitude": 47.68893, "longitude": -122.37718}, "transactions": ["delivery"], "price": "$$", "location": {"address1": "8305 15th Ave NW", "address2": "", "address3": "", "city": "Seattle", "zip_code": "98117", "country": "US", "state": "WA", "display_address": ["8305 15th Ave NW", "Seattle, WA 98117"]}, "phone": "+12067845465", "display_phone": "(206) 784-5465", "distance": 7713.291078884115}, {"id": "l_g52yLbL0anRmmpi9PWdA", "alias": "pop-pop-thai-street-food-seattle-8", "name": "Pop Pop Thai Street Food", "image_url": "https://s3-media3.fl.yelpcdn.com/bphoto/_b7A6NJBmC1ho7E3EhbdCg/o.jpg", "is_closed": false, "url": "https://www.yelp.com/biz/pop-pop-thai-street-food-seattle-8?adjust_creative=BPfv_JTrT9ZabA2Z5JdUdQ&utm_campaign=yelp_api_v3&utm_medium=api_v3_business_search&utm_source=BPfv_JTrT9ZabA2Z5JdUdQ", "review_count": 569, "categories": [{"alias": "thai", "title": "Thai"}, {"alias": "noodles", "title": "Noodles"}], "rating": 4.5, "coordinates": {"latitude": 47.726071, "longitude": -122.344547}, "transactions": ["pickup", "delivery"], "price": "$", "location": {"address1": "13242 Aurora Ave N", "address2": "Ste 104", "address3": "", "city": "Seattle", "zip_code": "98133", "country": "US", "state": "WA", "display_address": ["13242 Aurora Ave N", "Ste 104", "Seattle, WA 98133"]}, "phone": "+12066952858", "display_phone": "(206) 695-2858", "distance": 11212.406003936114}, {"id": "h1Q0Wkx5TUUZeVjJrXTwmQ", "alias": "chan-seattle-seattle-2", "name": "Chan Seattle", "image_url": "https://s3-media4.fl.yelpcdn.com/bphoto/VmCWBN6xBWySopG0kEzplw/o.jpg", "is_closed": false, "url": "https://www.yelp.com/biz/chan-seattle-seattle-2?adjust_creative=BPfv_JTrT9ZabA2Z5JdUdQ&utm_campaign=yelp_api_v3&utm_medium=api_v3_business_search&utm_source=BPfv_JTrT9ZabA2Z5JdUdQ", "review_count": 915, "categories": [{"alias": "asianfusion", "title": "Asian Fusion"}, {"alias": "korean", "title": "Korean"}, {"alias": "gastropubs", "title": "Gastropubs"}], "rating": 4.5, "coordinates": {"latitude": 47.6098823547363, "longitude": -122.341438293457}, "transactions": ["delivery"], "price": "$$", "location": {"address1": "86 Pine St", "address2": "", "address3": "", "city": "Seattle", "zip_code": "98101", "country": "US", "state": "WA", "display_address": ["86 Pine St", "Seattle, WA 98101"]}, "phone": "+12063543564", "display_phone": "(206) 354-3564", "distance": 1783.8238301371016}, {"id": "h7Dbi62QzPRXtqmlwUFhuA", "alias": "bai-tong-thai-street-cafe-seattle", "name": "Bai Tong Thai Street Cafe", "image_url": "https://s3-media4.fl.yelpcdn.com/bphoto/uTBlXB1s_uAx-bCxi6Mzqg/o.jpg", "is_closed": false, "url": "https://www.yelp.com/biz/bai-tong-thai-street-cafe-seattle?adjust_creative=BPfv_JTrT9ZabA2Z5JdUdQ&utm_campaign=yelp_api_v3&utm_medium=api_v3_business_search&utm_source=BPfv_JTrT9ZabA2Z5JdUdQ", "review_count": 459, "categories": [{"alias": "thai", "title": "Thai"}, {"alias": "bbq", "title": "Barbeque"}], "rating": 4.0, "coordinates": {"latitude": 47.6140225996357, "longitude": -122.317152052372}, "transactions": ["pickup", "delivery"], "price": "$$", "location": {"address1": "1121 E Pike St", "address2": "", "address3": null, "city": "Seattle", "zip_code": "98122", "country": "US", "state": "WA", "display_address": ["1121 E Pike St", "Seattle, WA 98122"]}, "phone": "+12067878448", "display_phone": "(206) 787-8448", "distance": 1870.5948083555747}, {"id": "RwVSt0N7-Le9ekGnZZwNjQ", "alias": "manao-thai-street-eats-seattle-4", "name": "Manao Thai Street Eats", "image_url": "https://s3-media2.fl.yelpcdn.com/bphoto/6IT0JsImI9UG80Lx-HsKEw/o.jpg", "is_closed": false, "url": "https://www.yelp.com/biz/manao-thai-street-eats-seattle-4?adjust_creative=BPfv_JTrT9ZabA2Z5JdUdQ&utm_campaign=yelp_api_v3&utm_medium=api_v3_business_search&utm_source=BPfv_JTrT9ZabA2Z5JdUdQ", "review_count": 359, "categories": [{"alias": "thai", "title": "Thai"}], "rating": 4.0, "coordinates": {"latitude": 47.61548, "longitude": -122.31594}, "transactions": ["delivery"], "price": "$$", "location": {"address1": "1222 E Pine St", "address2": "Ste C", "address3": "", "city": "Seattle", "zip_code": "98122", "country": "US", "state": "WA", "display_address": ["1222 E Pine St", "Ste C", "Seattle, WA 98122"]}, "phone": "+12065562964", "display_phone": "(206) 556-2964", "distance": 1854.9409295488954}, {"id": "l9FjCLB1KqpfwSsd2RPGNQ", "alias": "tup-tim-thai-seattle", "name": "Tup Tim Thai", "image_url": "https://s3-media3.fl.yelpcdn.com/bphoto/DdCGtd6cnkozdRk-rPFOuw/o.jpg", "is_closed": false, "url": "https://www.yelp.com/biz/tup-tim-thai-seattle?adjust_creative=BPfv_JTrT9ZabA2Z5JdUdQ&utm_campaign=yelp_api_v3&utm_medium=api_v3_business_search&utm_source=BPfv_JTrT9ZabA2Z5JdUdQ", "review_count": 430, "categories": [{"alias": "thai", "title": "Thai"}], "rating": 4.0, "coordinates": {"latitude": 47.6248, "longitude": -122.35901}, "transactions": ["delivery"], "price": "$$", "location": {"address1": "118 W Mercer St", "address2": "", "address3": "", "city": "Seattle", "zip_code": "98119", "country": "US", "state": "WA", "display_address": ["118 W Mercer St", "Seattle, WA 98119"]}, "phone": "+12062818833", "display_phone": "(206) 281-8833", "distance": 1762.2050893523515}, {"id": "rXbU5HJx6mihqazytPTgXA", "alias": "kedai-makan-seattle-4", "name": "Kedai Makan", "image_url": "https://s3-media2.fl.yelpcdn.com/bphoto/PMqIAYAknTK01diJEspDOA/o.jpg", "is_closed": false, "url": "https://www.yelp.com/biz/kedai-makan-seattle-4?adjust_creative=BPfv_JTrT9ZabA2Z5JdUdQ&utm_campaign=yelp_api_v3&utm_medium=api_v3_business_search&utm_source=BPfv_JTrT9ZabA2Z5JdUdQ", "review_count": 888, "categories": [{"alias": "malaysian", "title": "Malaysian"}, {"alias": "noodles", "title": "Noodles"}], "rating": 4.0, "coordinates": {"latitude": 47.6179, "longitude": -122.32658}, "transactions": ["delivery"], "price": "$$", "location": {"address1": "1802 Bellevue Ave", "address2": "", "address3": "", "city": "Seattle", "zip_code": "98122", "country": "US", "state": "WA", "display_address": ["1802 Bellevue Ave", "Seattle, WA 98122"]}, "phone": "", "display_phone": "", "distance": 1073.0051178890512}, {"id": "OPj6QZCSkWvqIFg5PV1WGQ", "alias": "kwanjai-thai-cuisine-seattle", "name": "Kwanjai Thai Cuisine", "image_url": "https://s3-media1.fl.yelpcdn.com/bphoto/gEnfzxncKRMTGX_gqGcU_Q/o.jpg", "is_closed": false, "url": "https://www.yelp.com/biz/kwanjai-thai-cuisine-seattle?adjust_creative=BPfv_JTrT9ZabA2Z5JdUdQ&utm_campaign=yelp_api_v3&utm_medium=api_v3_business_search&utm_source=BPfv_JTrT9ZabA2Z5JdUdQ", "review_count": 354, "categories": [{"alias": "thai", "title": "Thai"}], "rating": 4.0, "coordinates": {"latitude": 47.6515731811523, "longitude": -122.352645874023}, "transactions": ["pickup", "delivery"], "price": "$", "location": {"address1": "469 N 36th St", "address2": "", "address3": "", "city": "Seattle", "zip_code": "98103", "country": "US", "state": "WA", "display_address": ["469 N 36th St", "Seattle, WA 98103"]}, "phone": "+12066323656", "display_phone": "(206) 632-3656", "distance": 3179.4651841946247}, {"id": "1S1x7GT-cCinChE4bK-q8A", "alias": "little-thai-restaurant-seattle", "name": "Little Thai Restaurant", "image_url": "https://s3-media2.fl.yelpcdn.com/bphoto/ALOaRiuEoLnwPKSn1cdhaA/o.jpg", "is_closed": false, "url": "https://www.yelp.com/biz/little-thai-restaurant-seattle?adjust_creative=BPfv_JTrT9ZabA2Z5JdUdQ&utm_campaign=yelp_api_v3&utm_medium=api_v3_business_search&utm_source=BPfv_JTrT9ZabA2Z5JdUdQ", "review_count": 357, "categories": [{"alias": "thai", "title": "Thai"}], "rating": 4.0, "coordinates": {"latitude": 47.6581344604492, "longitude": -122.314018249512}, "transactions": ["pickup", "delivery"], "price": "$$", "location": {"address1": "4142 Brooklyn Ave NE", "address2": "", "address3": "", "city": "Seattle", "zip_code": "98105", "country": "US", "state": "WA", "display_address": ["4142 Brooklyn Ave NE", "Seattle, WA 98105"]}, "phone": "+12065488009", "display_phone": "(206) 548-8009", "distance": 3981.3926186259496}, {"id": "Ndlc_V2DsnowhXDdMuadYw", "alias": "bua-9-thai-cuisine-seattle-3", "name": "Bua 9 Thai Cuisine", "image_url": "https://s3-media3.fl.yelpcdn.com/bphoto/66kWWZCTkMsczgw1EWDnxg/o.jpg", "is_closed": false, "url": "https://www.yelp.com/biz/bua-9-thai-cuisine-seattle-3?adjust_creative=BPfv_JTrT9ZabA2Z5JdUdQ&utm_campaign=yelp_api_v3&utm_medium=api_v3_business_search&utm_source=BPfv_JTrT9ZabA2Z5JdUdQ", "review_count": 105, "categories": [{"alias": "thai", "title": "Thai"}], "rating": 4.0, "coordinates": {"latitude": 47.55639, "longitude": -122.28371}, "transactions": ["delivery"], "location": {"address1": "5020 Rainer Ave S", "address2": null, "address3": "", "city": "Seattle", "zip_code": "98118", "country": "US", "state": "WA", "display_address": ["5020 Rainer Ave S", "Seattle, WA 98118"]}, "phone": "+12063239445", "display_phone": "(206) 323-9445", "distance": 8601.318077783688}, {"id": "s96Dp0LqiGDLLWBIXODZCQ", "alias": "arayas-place-seattle-3", "name": "Araya's Place", "image_url": "https://s3-media1.fl.yelpcdn.com/bphoto/UDIoS1aqYCsSfuxlDIo5OQ/o.jpg", "is_closed": false, "url": "https://www.yelp.com/biz/arayas-place-seattle-3?adjust_creative=BPfv_JTrT9ZabA2Z5JdUdQ&utm_campaign=yelp_api_v3&utm_medium=api_v3_business_search&utm_source=BPfv_JTrT9ZabA2Z5JdUdQ", "review_count": 376, "categories": [{"alias": "thai", "title": "Thai"}, {"alias": "vegan", "title": "Vegan"}, {"alias": "venues", "title": "Venues & Event Spaces"}], "rating": 4.5, "coordinates": {"latitude": 47.6238626, "longitude": -122.2960954}, "transactions": ["pickup", "delivery"], "price": "$$", "location": {"address1": "2808 E Madison St", "address2": "", "address3": "", "city": "Seattle", "zip_code": "98112", "country": "US", "state": "WA", "display_address": ["2808 E Madison St", "Seattle, WA 98112"]}, "phone": "+12064026634", "display_phone": "(206) 402-6634", "distance": 2958.95676923681}, {"id": "9YeSEzr8HZMCuQlAyr8FPw", "alias": "thai-tom-seattle", "name": "Thai Tom", "image_url": "https://s3-media2.fl.yelpcdn.com/bphoto/XVx-o5ko-r2r7ifFCzoXnA/o.jpg", "is_closed": false, "url": "https://www.yelp.com/biz/thai-tom-seattle?adjust_creative=BPfv_JTrT9ZabA2Z5JdUdQ&utm_campaign=yelp_api_v3&utm_medium=api_v3_business_search&utm_source=BPfv_JTrT9ZabA2Z5JdUdQ", "review_count": 2196, "categories": [{"alias": "thai", "title": "Thai"}], "rating": 3.5, "coordinates": {"latitude": 47.662455, "longitude": -122.3132706}, "transactions": [], "price": "$", "location": {"address1": "4543 University Way NE", "address2": null, "address3": "", "city": "Seattle", "zip_code": "98105", "country": "US", "state": "WA", "display_address": ["4543 University Way NE", "Seattle, WA 98105"]}, "phone": "+12065489548", "display_phone": "(206) 548-9548", "distance": 4442.467721327633}, {"id": "us53L9b9r_UYxZcQLh5LYQ", "alias": "thai-recipe-restaurant-seattle", "name": "Thai Recipe Restaurant", "image_url": "https://s3-media3.fl.yelpcdn.com/bphoto/_nUGDsHZETH68hZVxIohkw/o.jpg", "is_closed": false, "url": "https://www.yelp.com/biz/thai-recipe-restaurant-seattle?adjust_creative=BPfv_JTrT9ZabA2Z5JdUdQ&utm_campaign=yelp_api_v3&utm_medium=api_v3_business_search&utm_source=BPfv_JTrT9ZabA2Z5JdUdQ", "review_count": 226, "categories": [{"alias": "thai", "title": "Thai"}], "rating": 4.0, "coordinates": {"latitude": 47.578252, "longitude": -122.299059}, "transactions": ["delivery"], "price": "$", "location": {"address1": "2609 S McClellan St", "address2": "", "address3": "", "city": "Seattle", "zip_code": "98144", "country": "US", "state": "WA", "display_address": ["2609 S McClellan St", "Seattle, WA 98144"]}, "phone": "+12067236165", "display_phone": "(206) 723-6165", "distance": 5914.082807105889}, {"id": "agJ6rlBoItb5zcs9f8oeLg", "alias": "mantra-seattle", "name": "Mantra", "image_url": "https://s3-media4.fl.yelpcdn.com/bphoto/CwL4QNdGIGwcAqC9fenB-g/o.jpg", "is_closed": false, "url": "https://www.yelp.com/biz/mantra-seattle?adjust_creative=BPfv_JTrT9ZabA2Z5JdUdQ&utm_campaign=yelp_api_v3&utm_medium=api_v3_business_search&utm_source=BPfv_JTrT9ZabA2Z5JdUdQ", "review_count": 384, "categories": [{"alias": "thai", "title": "Thai"}, {"alias": "seafood", "title": "Seafood"}, {"alias": "salad", "title": "Salad"}], "rating": 4.0, "coordinates": {"latitude": 47.6184417733982, "longitude": -122.348531557074}, "transactions": ["pickup", "delivery"], "price": "$$", "location": {"address1": "2720 4th Ave", "address2": "Ste 116", "address3": "", "city": "Seattle", "zip_code": "98121", "country": "US", "state": "WA", "display_address": ["2720 4th Ave", "Ste 116", "Seattle, WA 98121"]}, "phone": "+12066590466", "display_phone": "(206) 659-0466", "distance": 1246.7279189039323}, {"id": "7O3wxkqHOwIZ6PF46DnW3w", "alias": "kaosamai-thai-seattle-5", "name": "Kaosamai Thai", "image_url": "https://s3-media1.fl.yelpcdn.com/bphoto/W1O-bq_go_6iynNg1AjBWg/o.jpg", "is_closed": false, "url": "https://www.yelp.com/biz/kaosamai-thai-seattle-5?adjust_creative=BPfv_JTrT9ZabA2Z5JdUdQ&utm_campaign=yelp_api_v3&utm_medium=api_v3_business_search&utm_source=BPfv_JTrT9ZabA2Z5JdUdQ", "review_count": 10, "categories": [{"alias": "foodtrucks", "title": "Food Trucks"}, {"alias": "thai", "title": "Thai"}, {"alias": "catering", "title": "Caterers"}], "rating": 4.5, "coordinates": {"latitude": 47.624367393943, "longitude": -122.336134206335}, "transactions": ["delivery"], "location": {"address1": "551 Boren Ave N", "address2": "", "address3": null, "city": "Seattle", "zip_code": "98109", "country": "US", "state": "WA", "display_address": ["551 Boren Ave N", "Seattle, WA 98109"]}, "phone": "+12069259979", "display_phone": "(206) 925-9979", "distance": 125.94120526048846}, {"id": "USuEkfVh4Bt_Kp_-BOTbGA", "alias": "2c-thai-bistro-and-spirits-seattle-2", "name": "2C Thai Bistro & Spirits", "image_url": "https://s3-media1.fl.yelpcdn.com/bphoto/77OV6jYzLRr03Tjrgtvarw/o.jpg", "is_closed": false, "url": "https://www.yelp.com/biz/2c-thai-bistro-and-spirits-seattle-2?adjust_creative=BPfv_JTrT9ZabA2Z5JdUdQ&utm_campaign=yelp_api_v3&utm_medium=api_v3_business_search&utm_source=BPfv_JTrT9ZabA2Z5JdUdQ", "review_count": 297, "categories": [{"alias": "thai", "title": "Thai"}], "rating": 4.5, "coordinates": {"latitude": 47.7195198833942, "longitude": -122.294958606362}, "transactions": ["pickup", "delivery"], "price": "$$", "location": {"address1": "12506 Lake City Way NE", "address2": "", "address3": "", "city": "Seattle", "zip_code": "98125", "country": "US", "state": "WA", "display_address": ["12506 Lake City Way NE", "Seattle, WA 98125"]}, "phone": "+12067395909", "display_phone": "(206) 739-5909", "distance": 10899.817280543166}, {"id": "xmxwiHoNAVXnoeK6iBltNw", "alias": "srivilai-thai-cuisine-seattle", "name": "Srivilai Thai Cuisine", "image_url": "https://s3-media3.fl.yelpcdn.com/bphoto/uzF0sMoE9OhukPuVhrWZGA/o.jpg", "is_closed": false, "url": "https://www.yelp.com/biz/srivilai-thai-cuisine-seattle?adjust_creative=BPfv_JTrT9ZabA2Z5JdUdQ&utm_campaign=yelp_api_v3&utm_medium=api_v3_business_search&utm_source=BPfv_JTrT9ZabA2Z5JdUdQ", "review_count": 148, "categories": [{"alias": "thai", "title": "Thai"}], "rating": 4.5, "coordinates": {"latitude": 47.57428, "longitude": -122.38705}, "transactions": ["delivery"], "price": "$$", "location": {"address1": "3247 California Ave SW", "address2": "", "address3": null, "city": "Seattle", "zip_code": "98116", "country": "US", "state": "WA", "display_address": ["3247 California Ave SW", "Seattle, WA 98116"]}, "phone": "+12062575171", "display_phone": "(206) 257-5171", "distance": 6877.537872496085}, {"id": "E4PzUSFuduzS6tLmGgosoQ", "alias": "tamarind-tree-seattle", "name": "Tamarind Tree", "image_url": "https://s3-media1.fl.yelpcdn.com/bphoto/9ckQAUePpclVqJwTNLoAMw/o.jpg", "is_closed": false, "url": "https://www.yelp.com/biz/tamarind-tree-seattle?adjust_creative=BPfv_JTrT9ZabA2Z5JdUdQ&utm_campaign=yelp_api_v3&utm_medium=api_v3_business_search&utm_source=BPfv_JTrT9ZabA2Z5JdUdQ", "review_count": 1359, "categories": [{"alias": "vietnamese", "title": "Vietnamese"}, {"alias": "noodles", "title": "Noodles"}], "rating": 4.0, "coordinates": {"latitude": 47.5998406645559, "longitude": -122.317832050262}, "transactions": ["delivery"], "price": "$$", "location": {"address1": "1036 S Jackson St", "address2": "Ste A", "address3": "", "city": "Seattle", "zip_code": "98104", "country": "US", "state": "WA", "display_address": ["1036 S Jackson St", "Ste A", "Seattle, WA 98104"]}, "phone": "+12068601404", "display_phone": "(206) 860-1404", "distance": 3137.74773383048}, {"id": "u12bZ1b9nmCWXC2wLhT1kQ", "alias": "soi-seattle", "name": "SOI", "image_url": "https://s3-media2.fl.yelpcdn.com/bphoto/MZ1C9wO9vBR18Uc8IgR7oQ/o.jpg", "is_closed": false, "url": "https://www.yelp.com/biz/soi-seattle?adjust_creative=BPfv_JTrT9ZabA2Z5JdUdQ&utm_campaign=yelp_api_v3&utm_medium=api_v3_business_search&utm_source=BPfv_JTrT9ZabA2Z5JdUdQ", "review_count": 577, "categories": [{"alias": "bars", "title": "Bars"}, {"alias": "thai", "title": "Thai"}, {"alias": "desserts", "title": "Desserts"}], "rating": 4.0, "coordinates": {"latitude": 47.613057, "longitude": -122.3192713}, "transactions": ["delivery"], "price": "$$", "location": {"address1": "1400 10th Ave", "address2": "", "address3": "", "city": "Seattle", "zip_code": "98122", "country": "US", "state": "WA", "display_address": ["1400 10th Ave", "Seattle, WA 98122"]}, "phone": "+12065564853", "display_phone": "(206) 556-4853", "distance": 1836.0069768452865}, {"id": "FbR3hCxZI8HPeukE7c-ZJA", "alias": "kin-len-thai-night-bites-seattle-2", "name": "Kin Len Thai Night Bites", "image_url": "https://s3-media2.fl.yelpcdn.com/bphoto/0jcVC8EMkWSjEn4FNvYTQQ/o.jpg", "is_closed": false, "url": "https://www.yelp.com/biz/kin-len-thai-night-bites-seattle-2?adjust_creative=BPfv_JTrT9ZabA2Z5JdUdQ&utm_campaign=yelp_api_v3&utm_medium=api_v3_business_search&utm_source=BPfv_JTrT9ZabA2Z5JdUdQ", "review_count": 123, "categories": [{"alias": "thai", "title": "Thai"}, {"alias": "cocktailbars", "title": "Cocktail Bars"}, {"alias": "noodles", "title": "Noodles"}], "rating": 4.5, "coordinates": {"latitude": 47.65115, "longitude": -122.35023}, "transactions": ["pickup", "delivery"], "price": "$$", "location": {"address1": "3517 Fremont Ave N", "address2": "", "address3": null, "city": "Seattle", "zip_code": "98103", "country": "US", "state": "WA", "display_address": ["3517 Fremont Ave N", "Seattle, WA 98103"]}, "phone": "+12065821825", "display_phone": "(206) 582-1825", "distance": 3065.911094595543}, {"id": "N63WU0HmuPw2P00jvW2c4g", "alias": "tem-sib-thai-food-reimagined-bellevue-2", "name": "Tem Sib Thai Food Reimagined", "image_url": "https://s3-media1.fl.yelpcdn.com/bphoto/WgAWOCDfZbGVN_OsYnrg9g/o.jpg", "is_closed": false, "url": "https://www.yelp.com/biz/tem-sib-thai-food-reimagined-bellevue-2?adjust_creative=BPfv_JTrT9ZabA2Z5JdUdQ&utm_campaign=yelp_api_v3&utm_medium=api_v3_business_search&utm_source=BPfv_JTrT9ZabA2Z5JdUdQ", "review_count": 260, "categories": [{"alias": "thai", "title": "Thai"}], "rating": 4.0, "coordinates": {"latitude": 47.61983, "longitude": -122.19592}, "transactions": ["delivery", "restaurant_reservation"], "price": "$$", "location": {"address1": "1020 108th Ave NE", "address2": "Ste 100", "address3": null, "city": "Bellevue", "zip_code": "98004", "country": "US", "state": "WA", "display_address": ["1020 108th Ave NE", "Ste 100", "Bellevue, WA 98004"]}, "phone": "+14253326564", "display_phone": "(425) 332-6564", "distance": 10480.150948760938}, {"id": "9N9-_xORN9Vtc8ZKIqjoGA", "alias": "djans-thai-restaurant-seattle", "name": "Djan's Thai Restaurant", "image_url": "https://s3-media4.fl.yelpcdn.com/bphoto/hYF7XZl4MHdLygSvjAhPgw/o.jpg", "is_closed": false, "url": "https://www.yelp.com/biz/djans-thai-restaurant-seattle?adjust_creative=BPfv_JTrT9ZabA2Z5JdUdQ&utm_campaign=yelp_api_v3&utm_medium=api_v3_business_search&utm_source=BPfv_JTrT9ZabA2Z5JdUdQ", "review_count": 430, "categories": [{"alias": "thai", "title": "Thai"}], "rating": 4.0, "coordinates": {"latitude": 47.66154, "longitude": -122.32541}, "transactions": ["pickup", "delivery"], "price": "$$", "location": {"address1": "264 NE 45th St", "address2": null, "address3": "", "city": "Seattle", "zip_code": "98105", "country": "US", "state": "WA", "display_address": ["264 NE 45th St", "Seattle, WA 98105"]}, "phone": "+12066333526", "display_phone": "(206) 633-3526", "distance": 4085.046838237084}, {"id": "LOGyiysusUIfHbSw_UdhTw", "alias": "siam-on-eastlake-seattle", "name": "Siam On Eastlake", "image_url": "https://s3-media2.fl.yelpcdn.com/bphoto/7D3poyLjQFWEL7m_gza4KQ/o.jpg", "is_closed": false, "url": "https://www.yelp.com/biz/siam-on-eastlake-seattle?adjust_creative=BPfv_JTrT9ZabA2Z5JdUdQ&utm_campaign=yelp_api_v3&utm_medium=api_v3_business_search&utm_source=BPfv_JTrT9ZabA2Z5JdUdQ", "review_count": 304, "categories": [{"alias": "thai", "title": "Thai"}, {"alias": "sportsbars", "title": "Sports Bars"}], "rating": 3.5, "coordinates": {"latitude": 47.63461, "longitude": -122.32556}, "transactions": ["pickup", "delivery"], "price": "$$", "location": {"address1": "1629 Eastlake Ave E", "address2": "", "address3": "", "city": "Seattle", "zip_code": "98102", "country": "US", "state": "WA", "display_address": ["1629 Eastlake Ave E", "Seattle, WA 98102"]}, "phone": "+12063226174", "display_phone": "(206) 322-6174", "distance": 1249.9687341095487}, {"id": "TZxeBVK89H2QUdwgc0fyTw", "alias": "thaiku-seattle-5", "name": "Thaiku", "image_url": "https://s3-media2.fl.yelpcdn.com/bphoto/fZfhmzhEAHMn4PbsRchp6g/o.jpg", "is_closed": false, "url": "https://www.yelp.com/biz/thaiku-seattle-5?adjust_creative=BPfv_JTrT9ZabA2Z5JdUdQ&utm_campaign=yelp_api_v3&utm_medium=api_v3_business_search&utm_source=BPfv_JTrT9ZabA2Z5JdUdQ", "review_count": 281, "categories": [{"alias": "thai", "title": "Thai"}], "rating": 4.0, "coordinates": {"latitude": 47.6780594, "longitude": -122.3553749}, "transactions": ["delivery"], "price": "$$", "location": {"address1": "6705 Greenwood Ave N", "address2": "", "address3": "", "city": "Seattle", "zip_code": "98103", "country": "US", "state": "WA", "display_address": ["6705 Greenwood Ave N", "Seattle, WA 98103"]}, "phone": "+12067067807", "display_phone": "(206) 706-7807", "distance": 6039.497286516534}, {"id": "DkcA5bZyHLLSl-qMyGDeHA", "alias": "thai-thai-kitchen-seattle-2", "name": "Thai Thai Kitchen", "image_url": "https://s3-media1.fl.yelpcdn.com/bphoto/uRBArNWS0Yx58UOScUM5lQ/o.jpg", "is_closed": false, "url": "https://www.yelp.com/biz/thai-thai-kitchen-seattle-2?adjust_creative=BPfv_JTrT9ZabA2Z5JdUdQ&utm_campaign=yelp_api_v3&utm_medium=api_v3_business_search&utm_source=BPfv_JTrT9ZabA2Z5JdUdQ", "review_count": 237, "categories": [{"alias": "thai", "title": "Thai"}, {"alias": "noodles", "title": "Noodles"}, {"alias": "chicken_wings", "title": "Chicken Wings"}], "rating": 4.5, "coordinates": {"latitude": 47.698564, "longitude": -122.344872}, "transactions": ["pickup", "delivery"], "price": "$$", "location": {"address1": "9525 Aurora Ave N", "address2": null, "address3": "", "city": "Seattle", "zip_code": "98103", "country": "US", "state": "WA", "display_address": ["9525 Aurora Ave N", "Seattle, WA 98103"]}, "phone": "+12063973211", "display_phone": "(206) 397-3211", "distance": 8163.50045667603}, {"id": "a0dlZfb0veSMyqIzmJWkbw", "alias": "phayathai-cuisine-seattle-2", "name": "Phayathai Cuisine", "image_url": "https://s3-media3.fl.yelpcdn.com/bphoto/V3QcRWvq9JY1plOJHZQJ1A/o.jpg", "is_closed": false, "url": "https://www.yelp.com/biz/phayathai-cuisine-seattle-2?adjust_creative=BPfv_JTrT9ZabA2Z5JdUdQ&utm_campaign=yelp_api_v3&utm_medium=api_v3_business_search&utm_source=BPfv_JTrT9ZabA2Z5JdUdQ", "review_count": 274, "categories": [{"alias": "thai", "title": "Thai"}, {"alias": "asianfusion", "title": "Asian Fusion"}], "rating": 4.0, "coordinates": {"latitude": 47.693588, "longitude": -122.305966}, "transactions": ["pickup", "delivery"], "price": "$$", "location": {"address1": "8917 Lake City Way NE", "address2": "", "address3": "", "city": "Seattle", "zip_code": "98115", "country": "US", "state": "WA", "display_address": ["8917 Lake City Way NE", "Seattle, WA 98115"]}, "phone": "+12067292295", "display_phone": "(206) 729-2295", "distance": 7896.381134699597}, {"id": "sanqd2DKU1BWZ647Y9IMbA", "alias": "arayas-place-seattle-2", "name": "Araya's Place", "image_url": "https://s3-media4.fl.yelpcdn.com/bphoto/mPeXHD3vWp0gbCB4dJDWbw/o.jpg", "is_closed": false, "url": "https://www.yelp.com/biz/arayas-place-seattle-2?adjust_creative=BPfv_JTrT9ZabA2Z5JdUdQ&utm_campaign=yelp_api_v3&utm_medium=api_v3_business_search&utm_source=BPfv_JTrT9ZabA2Z5JdUdQ", "review_count": 395, "categories": [{"alias": "thai", "title": "Thai"}, {"alias": "vegan", "title": "Vegan"}, {"alias": "vegetarian", "title": "Vegetarian"}], "rating": 4.0, "coordinates": {"latitude": 47.6675671, "longitude": -122.3128845}, "transactions": ["pickup", "delivery"], "price": "$$", "location": {"address1": "5240 University Way NE", "address2": "", "address3": "", "city": "Seattle", "zip_code": "98105", "country": "US", "state": "WA", "display_address": ["5240 University Way NE", "Seattle, WA 98105"]}, "phone": "+12065244332", "display_phone": "(206) 524-4332", "distance": 4983.721370645706}, {"id": "JVT7w47Hco5PwUg1ZzzMgQ", "alias": "thai-curry-simple-seattle-5", "name": "Thai Curry Simple", "image_url": "https://s3-media2.fl.yelpcdn.com/bphoto/HFlqxPOJ1jrXKq2s0W3S0g/o.jpg", "is_closed": false, "url": "https://www.yelp.com/biz/thai-curry-simple-seattle-5?adjust_creative=BPfv_JTrT9ZabA2Z5JdUdQ&utm_campaign=yelp_api_v3&utm_medium=api_v3_business_search&utm_source=BPfv_JTrT9ZabA2Z5JdUdQ", "review_count": 344, "categories": [{"alias": "thai", "title": "Thai"}], "rating": 4.0, "coordinates": {"latitude": 47.598675, "longitude": -122.3275351}, "transactions": ["delivery"], "price": "$", "location": {"address1": "406 5th Ave S", "address2": "", "address3": "", "city": "Seattle", "zip_code": "98104", "country": "US", "state": "WA", "display_address": ["406 5th Ave S", "Seattle, WA 98104"]}, "phone": "+12063274838", "display_phone": "(206) 327-4838", "distance": 3028.5939938619285}, {"id": "oRhY8XzVV0yjs75GMRJcXw", "alias": "bang-bar-thai-restaurant-seattle", "name": "Bang Bar Thai Restaurant", "image_url": "https://s3-media2.fl.yelpcdn.com/bphoto/cJHsDQgSsoFZtbZ8yiksyA/o.jpg", "is_closed": false, "url": "https://www.yelp.com/biz/bang-bar-thai-restaurant-seattle?adjust_creative=BPfv_JTrT9ZabA2Z5JdUdQ&utm_campaign=yelp_api_v3&utm_medium=api_v3_business_search&utm_source=BPfv_JTrT9ZabA2Z5JdUdQ", "review_count": 436, "categories": [{"alias": "thai", "title": "Thai"}, {"alias": "lounges", "title": "Lounges"}, {"alias": "asianfusion", "title": "Asian Fusion"}], "rating": 3.5, "coordinates": {"latitude": 47.5595774575037, "longitude": -122.386648098024}, "transactions": ["pickup", "delivery"], "price": "$$", "location": {"address1": "4750 California Ave SW", "address2": "", "address3": "", "city": "Seattle", "zip_code": "98116", "country": "US", "state": "WA", "display_address": ["4750 California Ave SW", "Seattle, WA 98116"]}, "phone": "+12069358888", "display_phone": "(206) 935-8888", "distance": 8264.765874922492}, {"id": "6ud1VOO61bSkzE-F0n30UA", "alias": "jhanjay-vegetarian-thai-cuisine-seattle", "name": "Jhanjay Vegetarian Thai Cuisine", "image_url": "https://s3-media2.fl.yelpcdn.com/bphoto/RnZv7An4l3FgcWajPLY2XQ/o.jpg", "is_closed": false, "url": "https://www.yelp.com/biz/jhanjay-vegetarian-thai-cuisine-seattle?adjust_creative=BPfv_JTrT9ZabA2Z5JdUdQ&utm_campaign=yelp_api_v3&utm_medium=api_v3_business_search&utm_source=BPfv_JTrT9ZabA2Z5JdUdQ", "review_count": 432, "categories": [{"alias": "thai", "title": "Thai"}, {"alias": "vegetarian", "title": "Vegetarian"}], "rating": 4.0, "coordinates": {"latitude": 47.66152, "longitude": -122.33665}, "transactions": ["delivery"], "price": "$$", "location": {"address1": "1718 N 45th St", "address2": "", "address3": "", "city": "Seattle", "zip_code": "98103", "country": "US", "state": "WA", "display_address": ["1718 N 45th St", "Seattle, WA 98103"]}, "phone": "+12066321484", "display_phone": "(206) 632-1484", "distance": 4021.8760368594126}, {"id": "mO-OPKmvA4VtpZHoAlvFxA", "alias": "kin-dee-seattle-4", "name": "Kin Dee", "image_url": "https://s3-media2.fl.yelpcdn.com/bphoto/SSPqiX9K9Q1OTJR-L2I_Tg/o.jpg", "is_closed": false, "url": "https://www.yelp.com/biz/kin-dee-seattle-4?adjust_creative=BPfv_JTrT9ZabA2Z5JdUdQ&utm_campaign=yelp_api_v3&utm_medium=api_v3_business_search&utm_source=BPfv_JTrT9ZabA2Z5JdUdQ", "review_count": 108, "categories": [{"alias": "thai", "title": "Thai"}], "rating": 4.5, "coordinates": {"latitude": 47.61913, "longitude": -122.30235}, "transactions": ["pickup", "delivery"], "location": {"address1": "2301 E Madison St", "address2": null, "address3": "", "city": "Seattle", "zip_code": "98112", "country": "US", "state": "WA", "display_address": ["2301 E Madison St", "Seattle, WA 98112"]}, "phone": "+12064535514", "display_phone": "(206) 453-5514", "distance": 2581.5294023002857}, {"id": "qq1BpDKAM9GbntqQUgjn_A", "alias": "pinkaew-thai-cuisine-seattle-3", "name": "Pinkaew Thai Cuisine", "image_url": "https://s3-media2.fl.yelpcdn.com/bphoto/giE-FdBMk75GafZZjEaSow/o.jpg", "is_closed": false, "url": "https://www.yelp.com/biz/pinkaew-thai-cuisine-seattle-3?adjust_creative=BPfv_JTrT9ZabA2Z5JdUdQ&utm_campaign=yelp_api_v3&utm_medium=api_v3_business_search&utm_source=BPfv_JTrT9ZabA2Z5JdUdQ", "review_count": 200, "categories": [{"alias": "thai", "title": "Thai"}], "rating": 4.0, "coordinates": {"latitude": 47.6671832778846, "longitude": -122.300933257008}, "transactions": ["pickup", "delivery"], "price": "$$", "location": {"address1": "5101 25th Ave NE", "address2": "", "address3": "", "city": "Seattle", "zip_code": "98105", "country": "US", "state": "WA", "display_address": ["5101 25th Ave NE", "Seattle, WA 98105"]}, "phone": "+12065222200", "display_phone": "(206) 522-2200", "distance": 5317.500504066374}, {"id": "oPSlMJrGRWdUEhbYYMw66Q", "alias": "rom-mai-thai-seattle", "name": "Rom Mai Thai", "image_url": "https://s3-media1.fl.yelpcdn.com/bphoto/DIRjw_jwZRM5jvkJg2SXXw/o.jpg", "is_closed": false, "url": "https://www.yelp.com/biz/rom-mai-thai-seattle?adjust_creative=BPfv_JTrT9ZabA2Z5JdUdQ&utm_campaign=yelp_api_v3&utm_medium=api_v3_business_search&utm_source=BPfv_JTrT9ZabA2Z5JdUdQ", "review_count": 465, "categories": [{"alias": "thai", "title": "Thai"}], "rating": 3.5, "coordinates": {"latitude": 47.6244253, "longitude": -122.3209299}, "transactions": ["delivery"], "price": "$$", "location": {"address1": "613 Broadway E", "address2": "", "address3": "", "city": "Seattle", "zip_code": "98102", "country": "US", "state": "WA", "display_address": ["613 Broadway E", "Seattle, WA 98102"]}, "phone": "+12067269058", "display_phone": "(206) 726-9058", "distance": 1098.2712867166379}, {"id": "owBIBaZ9Mi-_LPu4mW7Vhw", "alias": "pung-kang-noodle-place-seattle", "name": "Pung Kang Noodle Place", "image_url": "https://s3-media2.fl.yelpcdn.com/bphoto/xUfOkbc7vsUBVsZw7hknSA/o.jpg", "is_closed": false, "url": "https://www.yelp.com/biz/pung-kang-noodle-place-seattle?adjust_creative=BPfv_JTrT9ZabA2Z5JdUdQ&utm_campaign=yelp_api_v3&utm_medium=api_v3_business_search&utm_source=BPfv_JTrT9ZabA2Z5JdUdQ", "review_count": 168, "categories": [{"alias": "thai", "title": "Thai"}, {"alias": "noodles", "title": "Noodles"}], "rating": 4.0, "coordinates": {"latitude": 47.6239046835758, "longitude": -122.356923889573}, "transactions": ["pickup", "delivery"], "price": "$$", "location": {"address1": "517 Queen Anne Ave N", "address2": "", "address3": "", "city": "Seattle", "zip_code": "98109", "country": "US", "state": "WA", "display_address": ["517 Queen Anne Ave N", "Seattle, WA 98109"]}, "phone": "+12062854656", "display_phone": "(206) 285-4656", "distance": 1613.6244838132227}, {"id": "zNE-dO7Pr7_j2mkyZV3_Hg", "alias": "bai-tong-thai-restaurant-tukwila", "name": "Bai Tong Thai Restaurant", "image_url": "https://s3-media1.fl.yelpcdn.com/bphoto/yzz33q525jvsg3j_Nqz30g/o.jpg", "is_closed": false, "url": "https://www.yelp.com/biz/bai-tong-thai-restaurant-tukwila?adjust_creative=BPfv_JTrT9ZabA2Z5JdUdQ&utm_campaign=yelp_api_v3&utm_medium=api_v3_business_search&utm_source=BPfv_JTrT9ZabA2Z5JdUdQ", "review_count": 1293, "categories": [{"alias": "thai", "title": "Thai"}], "rating": 4.0, "coordinates": {"latitude": 47.45256, "longitude": -122.26122}, "transactions": ["pickup", "delivery"], "price": "$$", "location": {"address1": "16876 Southcenter Pkwy", "address2": "", "address3": "", "city": "Tukwila", "zip_code": "98188", "country": "US", "state": "WA", "display_address": ["16876 Southcenter Pkwy", "Tukwila, WA 98188"]}, "phone": "+12064310893", "display_phone": "(206) 431-0893", "distance": 20018.818874087367}, {"id": "H9e3leaDm67zeU9tOkmeCw", "alias": "may-kitchen-and-bar-vashon-2", "name": "May Kitchen & Bar", "image_url": "https://s3-media2.fl.yelpcdn.com/bphoto/ax_RqZGTNiKODwhI1dMIEA/o.jpg", "is_closed": false, "url": "https://www.yelp.com/biz/may-kitchen-and-bar-vashon-2?adjust_creative=BPfv_JTrT9ZabA2Z5JdUdQ&utm_campaign=yelp_api_v3&utm_medium=api_v3_business_search&utm_source=BPfv_JTrT9ZabA2Z5JdUdQ", "review_count": 224, "categories": [{"alias": "thai", "title": "Thai"}, {"alias": "bars", "title": "Bars"}], "rating": 4.5, "coordinates": {"latitude": 47.446932, "longitude": -122.460314}, "transactions": [], "price": "$$", "location": {"address1": "17614 Vashon Hwy SW", "address2": "", "address3": "", "city": "Vashon", "zip_code": "98070", "country": "US", "state": "WA", "display_address": ["17614 Vashon Hwy SW", "Vashon, WA 98070"]}, "phone": "+12064087196", "display_phone": "(206) 408-7196", "distance": 21947.11119509068}, {"id": "tKhIjk5WEpQ44iyWGIXxLA", "alias": "ti22-seattle", "name": "Ti22", "image_url": "https://s3-media1.fl.yelpcdn.com/bphoto/6DXQo2XUgSiwXq-onNyBvQ/o.jpg", "is_closed": false, "url": "https://www.yelp.com/biz/ti22-seattle?adjust_creative=BPfv_JTrT9ZabA2Z5JdUdQ&utm_campaign=yelp_api_v3&utm_medium=api_v3_business_search&utm_source=BPfv_JTrT9ZabA2Z5JdUdQ", "review_count": 315, "categories": [{"alias": "thai", "title": "Thai"}], "rating": 4.0, "coordinates": {"latitude": 47.617111, "longitude": -122.3464964}, "transactions": ["pickup", "delivery"], "price": "$$", "location": {"address1": "2510 4th Ave", "address2": "", "address3": "", "city": "Seattle", "zip_code": "98121", "country": "US", "state": "WA", "display_address": ["2510 4th Ave", "Seattle, WA 98121"]}, "phone": "+12064534090", "display_phone": "(206) 453-4090", "distance": 1237.5001490283385}, {"id": "5p-ChdV913FkLJQn_kjvRA", "alias": "noodle-boat-thai-cuisine-issaquah", "name": "Noodle Boat Thai Cuisine", "image_url": "https://s3-media4.fl.yelpcdn.com/bphoto/fEJ3UJk26ieTHXP3k9nxEQ/o.jpg", "is_closed": false, "url": "https://www.yelp.com/biz/noodle-boat-thai-cuisine-issaquah?adjust_creative=BPfv_JTrT9ZabA2Z5JdUdQ&utm_campaign=yelp_api_v3&utm_medium=api_v3_business_search&utm_source=BPfv_JTrT9ZabA2Z5JdUdQ", "review_count": 437, "categories": [{"alias": "thai", "title": "Thai"}, {"alias": "noodles", "title": "Noodles"}], "rating": 4.0, "coordinates": {"latitude": 47.54376, "longitude": -122.04714}, "transactions": ["delivery"], "price": "$$", "location": {"address1": "700 NW Gilman Blvd", "address2": "Ste E104B", "address3": "", "city": "Issaquah", "zip_code": "98027", "country": "US", "state": "WA", "display_address": ["700 NW Gilman Blvd", "Ste E104B", "Issaquah, WA 98027"]}, "phone": "+14253918096", "display_phone": "(425) 391-8096", "distance": 23457.4664709376}, {"id": "ZbwnRI2cPisShwBzv3s1dw", "alias": "kati-vegan-thai-seattle", "name": "Kati Vegan Thai", "image_url": "https://s3-media4.fl.yelpcdn.com/bphoto/o-vpZfMIB_cy-PRnytegxA/o.jpg", "is_closed": false, "url": "https://www.yelp.com/biz/kati-vegan-thai-seattle?adjust_creative=BPfv_JTrT9ZabA2Z5JdUdQ&utm_campaign=yelp_api_v3&utm_medium=api_v3_business_search&utm_source=BPfv_JTrT9ZabA2Z5JdUdQ", "review_count": 211, "categories": [{"alias": "thai", "title": "Thai"}, {"alias": "vegan", "title": "Vegan"}, {"alias": "bars", "title": "Bars"}], "rating": 4.5, "coordinates": {"latitude": 47.62096, "longitude": -122.33343}, "transactions": ["pickup", "delivery"], "price": "$$", "location": {"address1": "1190 Thomas St", "address2": null, "address3": "", "city": "Seattle", "zip_code": "98109", "country": "US", "state": "WA", "display_address": ["1190 Thomas St", "Seattle, WA 98109"]}, "phone": "+12069007954", "display_phone": "(206) 900-7954", "distance": 492.9865573502549}, {"id": "_k0wXCTIU8-sDsYrM-ud1w", "alias": "the-great-northwest-soup-company-seattle-5", "name": "The Great Northwest Soup Company", "image_url": "https://s3-media3.fl.yelpcdn.com/bphoto/ayMRRBVAeE0ccwwlZ6yRZQ/o.jpg", "is_closed": false, "url": "https://www.yelp.com/biz/the-great-northwest-soup-company-seattle-5?adjust_creative=BPfv_JTrT9ZabA2Z5JdUdQ&utm_campaign=yelp_api_v3&utm_medium=api_v3_business_search&utm_source=BPfv_JTrT9ZabA2Z5JdUdQ", "review_count": 46, "categories": [{"alias": "soup", "title": "Soup"}], "rating": 4.5, "coordinates": {"latitude": 47.6309632983408, "longitude": -122.327419319811}, "transactions": ["pickup", "delivery"], "price": "$", "location": {"address1": "1201 Eastlake Ave E", "address2": "", "address3": "", "city": "Seattle", "zip_code": "98102", "country": "US", "state": "WA", "display_address": ["1201 Eastlake Ave E", "Seattle, WA 98102"]}, "phone": "+12065823503", "display_phone": "(206) 582-3503", "distance": 864.6902680881788}], "total": 820, "region": {"center": {"longitude": -122.33551025390625, "latitude": 47.62541904760501}}}}